{"type":"FeatureCollection", "features":[
{"type":"Feature","geometry":{"type":"Point","coordinates":[29.74826847808518,-2.605266193607389]},"properties":{"objectid":29,"layer":"Sport_Sites","type":"stadium","name":"Kamena","source":"OSM","capture":"2019","created_us":null,"created_da":null,"last_edite":null,"last_edi_1":null}},
{"type":"Feature","geometry":{"type":"Point","coordinates":[29.74633509335356,-2.6075990527103965]},"properties":{"objectid":33,"layer":"Sport_Sites","type":"pitch","name":"vulgusi","source":"OSM","capture":"2019","created_us":null,"created_da":null,"last_edite":null,"last_edi_1":null}},
{"type":"Feature","geometry":{"type":"Point","coordinates":[29.74524902024396,-2.615463823563824]},"properties":{"objectid":58,"layer":"Sport_Sites","type":"stadium","name":"Seating palce","source":"OSM","capture":"2019","created_us":null,"created_da":null,"last_edite":null,"last_edi_1":null}},
{"type":"Feature","geometry":{"type":"Point","coordinates":[29.745716640237877,-2.6157822265273003]},"properties":{"objectid":59,"layer":"Sport_Sites","type":"stadium","name":"University Stadium","source":"OSM","capture":"2019","created_us":null,"created_da":null,"last_edite":null,"last_edi_1":null}},
{"type":"Feature","geometry":{"type":"Point","coordinates":[29.74145639339116,-2.5964064518133494]},"properties":{"objectid":179,"layer":"Sport_Sites","type":"stadium","name":"Stade Huye","source":"OSM","capture":"2019","created_us":null,"created_da":null,"last_edite":null,"last_edi_1":null}},
{"type":"Feature","geometry":{"type":"Point","coordinates":[29.74482309319693,-2.606474752525106]},"properties":{"objectid":180,"layer":"Sport_Sites","type":"stadium","name":null,"source":"OSM","capture":"2019","created_us":null,"created_da":null,"last_edite":null,"last_edi_1":null}}
]}
